{"dB": [{"id": 1, "name": "Abhijit Jadhav", "address": "Aundh ", "latitude": "18.558", "longitude": "73.8075", "mode": "bus", "distance1": "7.6 km", "time_req": "18 mins", "group_id": "4NW", "start_id": 1}, {"id": 2, "name": "Abhishek  Tatti", "address": "Aundh Camp ", "latitude": "18.5552", "longitude": "73.8189", "mode": "2w_shared", "distance1": "9.0 km", "time_req": "20 mins", "group_id": "5NW", "start_id": 44}, {"id": 3, "name": "Adesh Tajane", "address": "Aundh", "latitude": "18.558", "longitude": "73.8075", "mode": "2w_shared", "distance1": "7.6 km", "time_req": "18 mins", "group_id": "4NW", "start_id": 1}, {"id": 4, "name": "Aditi Jain", "address": "Bajirao Road ", "latitude": "18.5055", "longitude": "73.8536", "mode": "bus", "distance1": "3.0 km", "time_req": "11 mins", "group_id": "2S", "start_id": 35}, {"id": 5, "name": "Aditya Jain", "address": "Baner Gaon ", "latitude": "18.559", "longitude": "73.7868", "mode": "None", "distance1": "9.1 km", "time_req": "22 mins", "group_id": "5W", "start_id": 5}, {"id": 6, "name": "Aditya Dhage", "address": "Baner Road ", "latitude": "18.554", "longitude": "73.7972", "mode": "bus", "distance1": "7.3 km", "time_req": "42 mins", "group_id": "4W", "start_id": 6}, {"id": 7, "name": "Aditya Gaydhani", "address": "Bavdhan ", "latitude": "18.5156", "longitude": "73.7819", "mode": "2w_shared", "distance1": "11.3 km", "time_req": "25 mins", "group_id": "6W", "start_id": 7}, {"id": 8, "name": "Adwaita Jadhav", "address": "Bhosari I.E. ", "latitude": "18.6385", "longitude": "73.8478", "mode": "4w_shared", "distance1": "18.9 km", "time_req": "34 mins", "group_id": "10N", "start_id": 8}, {"id": 9, "name": "Amit Dharmadhikari", "address": "Bhosarigoan ", "latitude": "18.5598", "longitude": "73.8916", "mode": "bus", "distance1": "18.9 km", "time_req": "34 mins", "group_id": "10NE", "start_id": 8}, {"id": 10, "name": "ANAND WANI", "address": "Bhusari Colony ", "latitude": "18.5082", "longitude": "73.7904", "mode": "4w_shared", "distance1": "13.1 km", "time_req": "29 mins", "group_id": "7W", "start_id": 10}, {"id": 11, "name": "Ankit Surkar", "address": "Bibvewadi ", "latitude": "18.4718", "longitude": "73.8671", "mode": "2w_shared", "distance1": "9.1 km", "time_req": "29 mins", "group_id": "5S", "start_id": 26}, {"id": 12, "name": "Ankita Purwar", "address": "Botanical Garden (Pune)", "latitude": "18.566", "longitude": "73.8257", "mode": "4w_shared", "distance1": "6.9 km", "time_req": "17 mins", "group_id": "4NW", "start_id": 1}, {"id": 13, "name": "Ashutosh Kedar", "address": "C D A (O) ", "latitude": "18.5204", "longitude": "73.8567", "mode": "None", "distance1": "5.4 km", "time_req": "17 mins", "group_id": "3S", "start_id": 54}, {"id": 14, "name": "Atharv Vibhute", "address": "C M E ", "latitude": "18.5204", "longitude": "73.8567", "mode": "bus", "distance1": "7.7 km", "time_req": "50 mins", "group_id": "4S", "start_id": 14}, {"id": 15, "name": "Chaitanya S Mamidwar", "address": "Chikhali ", "latitude": "18.671", "longitude": "73.8243", "mode": "bus", "distance1": "18.7 km", "time_req": "38 mins", "group_id": "10N", "start_id": 72}, {"id": 16, "name": "Darpan Bafana", "address": "Chinchwad East ", "latitude": "18.6298", "longitude": "73.7997", "mode": "None", "distance1": "16.0 km", "time_req": "29 mins", "group_id": "8NW", "start_id": 16}, {"id": 17, "name": "DEEPALI ANDE", "address": "Chinchwadgaon ", "latitude": "18.6276", "longitude": "73.7809", "mode": "None", "distance1": "17.2 km", "time_req": "1 hour 14 mins", "group_id": "9NW", "start_id": 17}, {"id": 18, "name": "Dhawal bhai Patel", "address": "Congress House Road ", "latitude": "18.5228", "longitude": "73.8531", "mode": "bus", "distance1": "2.1 km", "time_req": "11 mins", "group_id": "2S", "start_id": 35}, {"id": 19, "name": "DIKSHA RAJMANE", "address": "Dapodi ", "latitude": "18.5129", "longitude": "74.3998", "mode": "4w_shared", "distance1": "7.9 km", "time_req": "18 mins", "group_id": "4E", "start_id": 19}, {"id": 20, "name": "Eshwar Nag Pilli", "address": "Dapodi Bazar ", "latitude": "18.6233", "longitude": "73.7997", "mode": "bus", "distance1": "1.8 km", "time_req": "6 mins", "group_id": "1NW", "start_id": 41}, {"id": 21, "name": "Gaurav Chaudhari", "address": "Deccan Gymkhana ", "latitude": "18.5176", "longitude": "73.8417", "mode": "4w_shared", "distance1": "4.1 km", "time_req": "13 mins", "group_id": "3SW", "start_id": 21}, {"id": 22, "name": "Gaurav Agarwal", "address": "Dhankawadi ", "latitude": "18.4616", "longitude": "73.8505", "mode": "2w_shared", "distance1": "10.3 km", "time_req": "33 mins", "group_id": "6S", "start_id": 46}, {"id": 23, "name": "Hussain Bohra", "address": "Dhanori ", "latitude": "18.5835", "longitude": "73.8865", "mode": "bus", "distance1": "9.5 km", "time_req": "23 mins", "group_id": "5NE", "start_id": 23}, {"id": 24, "name": "Isha Chaudhari", "address": "Dhayari ", "latitude": "18.4422", "longitude": "73.8096", "mode": "2w_shared", "distance1": "13.3 km", "time_req": "43 mins", "group_id": "7SW", "start_id": 24}, {"id": 25, "name": "Ketan Bedarkar", "address": "Dighi Camp ", "latitude": "18.5598", "longitude": "73.8916", "mode": "2w_shared", "distance1": "9.5 km", "time_req": "20 mins", "group_id": "5NE", "start_id": 23}, {"id": 26, "name": "Khemraj Adhawade", "address": "Dr.B.A. Chowk ", "latitude": "18.5214", "longitude": "73.8552", "mode": "4w_shared", "distance1": "9.8 km", "time_req": "31 mins", "group_id": "5S", "start_id": 26}, {"id": 27, "name": "KIRAN SHINDE", "address": "East Khadki ", "latitude": "18.5699", "longitude": "73.8506", "mode": "4w_shared", "distance1": "5.8 km", "time_req": "16 mins", "group_id": "3N", "start_id": 27}, {"id": 28, "name": "Krushna Mantri", "address": "Ex. Serviceman Colony ", "latitude": "18.5204", "longitude": "73.8567", "mode": "2w_shared", "distance1": "7.1 km", "time_req": "22 mins", "group_id": "4S", "start_id": 14}, {"id": 29, "name": "KUMAR NISHANT", "address": "Film Institute ", "latitude": "18.5204", "longitude": "73.8567", "mode": "bus", "distance1": "5.3 km", "time_req": "31 mins", "group_id": "3S", "start_id": 54}, {"id": 30, "name": "Mayur Padma", "address": "Ganeshkhind ", "latitude": "18.5596", "longitude": "73.8171", "mode": "2w_shared", "distance1": "6.4 km", "time_req": "14 mins", "group_id": "4NW", "start_id": 1}, {"id": 31, "name": "NEEHARIKA GOYAL", "address": "Ghorpade Peth ", "latitude": "18.5019", "longitude": "73.8663", "mode": "2w_shared", "distance1": "4.6 km", "time_req": "16 mins", "group_id": "3S", "start_id": 54}, {"id": 32, "name": "Neha Patil", "address": "Ghorpuri Bazar ", "latitude": "18.5282", "longitude": "73.8939", "mode": "bus", "distance1": "4.9 km", "time_req": "15 mins", "group_id": "3E", "start_id": 32}, {"id": 33, "name": "Nikita Dhoot", "address": "Gokhalenagar ", "latitude": "18.5296", "longitude": "73.8213", "mode": "bus", "distance1": "5.1 km", "time_req": "17 mins", "group_id": "3W", "start_id": 33}, {"id": 34, "name": "NISHANT GADEKAR", "address": "Gondhale Nagar ", "latitude": "18.4941", "longitude": "73.9489", "mode": "None", "distance1": "12.0 km", "time_req": "32 mins", "group_id": "6SE", "start_id": 34}, {"id": 35, "name": "NITU CHOUDHARY", "address": "Govt. Polytechnic ", "latitude": "18.5204", "longitude": "73.8567", "mode": "None", "distance1": "3.9 km", "time_req": "28 mins", "group_id": "2S", "start_id": 35}, {"id": 36, "name": "Piyush Chaudhari", "address": "Guruwar Peth ", "latitude": "18.5064", "longitude": "73.8603", "mode": "4w_shared", "distance1": "4.4 km", "time_req": "18 mins", "group_id": "3S", "start_id": 54}, {"id": 37, "name": "Piyush Khadse", "address": "H.E. Factory ", "latitude": "18.5666", "longitude": "73.8531", "mode": "2w_shared", "distance1": "4.4 km", "time_req": "10 mins", "group_id": "3N", "start_id": 27}, {"id": 38, "name": "Pooja Chate", "address": "Hadapsar ", "latitude": "18.5089", "longitude": "73.926", "mode": "None", "distance1": "10.2 km", "time_req": "30 mins", "group_id": "6E", "start_id": 38}, {"id": 39, "name": "Prabhat Pandey", "address": "Indrayaninagar ", "latitude": "18.5495", "longitude": "73.8426", "mode": "4w_shared", "distance1": "3.8 km", "time_req": "31 mins", "group_id": "2NW", "start_id": 39}, {"id": 40, "name": "PRADNYA PATANGE", "address": "Infotech Park (Hinjawadi) ", "latitude": "18.5947", "longitude": "73.7095", "mode": "4w_shared", "distance1": "19.5 km", "time_req": "43 mins", "group_id": "10NW", "start_id": 41}, {"id": 41, "name": "PRITAM KUMAR", "address": "Kalewadi ", "latitude": "18.6102", "longitude": "73.7874", "mode": "bus", "distance1": "102 km", "time_req": "2 hours 16 mins", "group_id": "18NW", "start_id": 41}, {"id": 42, "name": "Priyanka Jagtap", "address": "Kapad Ganj ", "latitude": "18.5204", "longitude": "73.8567", "mode": "2w_shared", "distance1": "3.2 km", "time_req": "13 mins", "group_id": "2S", "start_id": 35}, {"id": 43, "name": "Radha Mane", "address": "Karvenagar ", "latitude": "18.4898", "longitude": "73.8203", "mode": "None", "distance1": "8.7 km", "time_req": "29 mins", "group_id": "5SW", "start_id": 43}, {"id": 44, "name": "RISHABH JHA", "address": "Kasarwadi ", "latitude": "18.6061", "longitude": "73.8228", "mode": "bus", "distance1": "10.0 km", "time_req": "55 mins", "group_id": "5NW", "start_id": 44}, {"id": 45, "name": "Rohit Patankar", "address": "Kasba Peth ", "latitude": "18.5259", "longitude": "73.861", "mode": "4w_shared", "distance1": "1.5 km", "time_req": "5 mins", "group_id": "1SE", "start_id": 45}, {"id": 46, "name": "Rohit Relan", "address": "Katraj ", "latitude": "18.4575", "longitude": "73.8677", "mode": "4w_shared", "distance1": "10.7 km", "time_req": "34 mins", "group_id": "6S", "start_id": 46}, {"id": 47, "name": "Ronish Zadode", "address": "Khadki ", "latitude": "18.5699", "longitude": "73.8506", "mode": "4w_shared", "distance1": "5.8 km", "time_req": "16 mins", "group_id": "3N", "start_id": 27}, {"id": 48, "name": "Saichand Duggirala", "address": "Khadki Bazar ", "latitude": "18.5681", "longitude": "73.8509", "mode": "None", "distance1": "5.8 km", "time_req": "16 mins", "group_id": "3N", "start_id": 27}, {"id": 49, "name": "Sanket Patil", "address": "Khondhwa KH ", "latitude": "18.4771", "longitude": "73.8907", "mode": "2w_shared", "distance1": "10.2 km", "time_req": "47 mins", "group_id": "6SE", "start_id": 34}, {"id": 50, "name": "Sanket Raje", "address": "Kondhwa BK ", "latitude": "18.4771", "longitude": "73.8907", "mode": "bus", "distance1": "8.2 km", "time_req": "25 mins", "group_id": "5SE", "start_id": 50}, {"id": 51, "name": "Shalaka Sawale", "address": "Lohogaon ", "latitude": "18.5911", "longitude": "73.9188", "mode": "4w_shared", "distance1": "12.1 km", "time_req": "27 mins", "group_id": "7NE", "start_id": 51}, {"id": 52, "name": "Eshank\tNazare", "address": "Lokmanyanagar ", "latitude": "18.5067", "longitude": "73.8457", "mode": "2w_shared", "distance1": "4.8 km", "time_req": "17 mins", "group_id": "3S", "start_id": 54}, {"id": 53, "name": "GAURAV\tJAWARE", "address": "Mangalwar Peth (Pune)", "latitude": "18.5241", "longitude": "73.8647", "mode": "None", "distance1": "1.5 km", "time_req": "6 mins", "group_id": "1SE", "start_id": 45}, {"id": 54, "name": "Indrajeet Kulkarni", "address": "Market Yard (Pune)", "latitude": "18.4877", "longitude": "73.8684", "mode": "None", "distance1": "5.8 km", "time_req": "20 mins", "group_id": "3S", "start_id": 54}, {"id": 55, "name": "Kanchan Patil", "address": "Swargate ", "latitude": "18.5018", "longitude": "73.8636", "mode": "2w_shared", "distance1": "5.0 km", "time_req": "17 mins", "group_id": "3S", "start_id": 54}, {"id": 56, "name": "Kunal Kampassi", "address": "Swargate Chowk ", "latitude": "18.4987", "longitude": "73.8581", "mode": "2w_shared", "distance1": "6.1 km", "time_req": "21 mins", "group_id": "4S", "start_id": 14}, {"id": 57, "name": "LAXMI DARANDALE", "address": "Sinhgad Technical Education Society", "latitude": "18.5204", "longitude": "73.8567", "mode": "bus", "distance1": "15.6 km", "time_req": "34 mins", "group_id": "8S", "start_id": 57}, {"id": 58, "name": "MANGESH RAHANE", "address": "Pimple Gurav ", "latitude": "18.5895", "longitude": "73.812", "mode": "bus", "distance1": "10.9 km", "time_req": "26 mins", "group_id": "6NW", "start_id": 58}, {"id": 59, "name": "MONIKA\tDHAKATE", "address": "Pimpri Colony ", "latitude": "18.4929", "longitude": "73.8568", "mode": "2w_shared", "distance1": "12.7 km", "time_req": "26 mins", "group_id": "7S", "start_id": 59}, {"id": 60, "name": "Niranjan Kumar", "address": "Parvati ", "latitude": "18.4459", "longitude": "73.8666", "mode": "4w_shared", "distance1": "6.3 km", "time_req": "23 mins", "group_id": "4S", "start_id": 14}, {"id": 61, "name": "Nishant Shrivastava", "address": "Parvati Gaon ", "latitude": "18.4973", "longitude": "73.8511", "mode": "None", "distance1": "6.4 km", "time_req": "23 mins", "group_id": "4S", "start_id": 14}, {"id": 62, "name": "Ojas Bhargave", "address": "Narayan Peth ", "latitude": "18.5155", "longitude": "73.8501", "mode": "2w_shared", "distance1": "3.3 km", "time_req": "21 mins", "group_id": "2S", "start_id": 35}, {"id": 63, "name": "Reshma kadam", "address": "Guruwar peth ", "latitude": "18.5120", "longitude": "73.8531", "mode": "2w_shared", "distance1": "4.3 km", "time_req": "15 mins", "group_id": "3S", "start_id": 54}, {"id": 64, "name": "purvi", "address": "sadashiv peth ", "latitude": "18.5083218", "longitude": "73.8465648", "mode": "2w_shared", "distance1": "4.6 km", "time_req": "16 mins", "group_id": "3S", "start_id": 54}, {"id": 65, "name": "Krushna Mantri", "address": "Flat no 09 ,Avish Apartment,Kothrud pune", "latitude": "18.5162864", "longitude": "73.8169099", "mode": "2w_shared", "distance1": "7.9 km", "time_req": "25 mins", "group_id": "4SW", "start_id": 65}, {"id": 66, "name": "Rajesh", "address": "Narhe", "latitude": "18.4474889", "longitude": "73.82322549999999", "mode": "2w_shared", "distance1": "14.1 km", "time_req": "43 mins", "group_id": "8S", "start_id": 57}, {"id": 67, "name": "Krushna Mantri", "address": "Avish Apartment,Kothrud", "latitude": "18.5032689", "longitude": "73.8001391", "mode": "None", "distance1": "8.2 km", "time_req": "25 mins", "group_id": "5SW", "start_id": 43}, {"id": 68, "name": "Ronish Zadode", "address": "gokul colony,dighi", "latitude": "18.6212059", "longitude": "73.87204489999999", "mode": "4w_shared", "distance1": "13.8 km", "time_req": "30 mins", "group_id": "7N", "start_id": 68}, {"id": 69, "name": "Snehal waghmare", "address": "Shivaji nagar", "latitude": "18.5318058", "longitude": "73.8500432", "mode": "2w_shared", "distance1": "1.7 km", "time_req": "6 mins", "group_id": "1W", "start_id": 8}, {"id": 70, "name": "swaraj tumbe", "address": "kondhwa", "latitude": "18.4770906", "longitude": "73.89068689999999", "mode": "4w_shared", "distance1": "8.2 km", "time_req": "25 mins", "group_id": "5SE", "start_id": 50}, {"id": 71, "name": "Ishwar", "address": "Katraj", "latitude": "18.4575324", "longitude": "73.8677464", "mode": "2w_shared", "distance1": "10.7 km", "time_req": "34 mins", "group_id": "6S", "start_id": 46}, {"id": 72, "name": "Ishwar Puntambe", "address": "Jejuri", "latitude": "18.2789607", "longitude": "74.1577421", "mode": "2w_shared", "distance1": "49.0 km", "time_req": "1 hour 26 mins", "group_id": "18SE", "start_id": 72}, {"id": 73, "name": "bhupesh kadam", "address": "kalyani nagar", "latitude": "18.5463286", "longitude": "73.9033139", "mode": "2w_shared", "distance1": "6.9 km", "time_req": "19 mins", "group_id": "4E", "start_id": 19}, {"id": 74, "name": "Test test", "address": "kothrud", "latitude": "18.5073985", "longitude": "73.8076504", "mode": "4w_shared", "distance1": "8.7 km", "time_req": "26 mins", "group_id": "5SW", "start_id": 43}, {"id": 75, "name": "rohit sharma", "address": "balajinagar", "latitude": "18.4646316", "longitude": "73.8602841", "mode": "2w_shared", "distance1": "9.8 km", "time_req": "31 mins", "group_id": "5S", "start_id": 26}, {"id": 76, "name": "test new", "address": "kothrud", "latitude": "18.5073985", "longitude": "73.8076504", "mode": "2w_shared", "distance1": "8.7 km", "time_req": "26 mins", "group_id": "5SW", "start_id": 43}, {"id": 77, "name": "Ronz", "address": "katraj", "latitude": "18.4575324", "longitude": "73.8677464", "mode": "4w_shared", "distance1": "10.7 km", "time_req": "34 mins", "group_id": "6S", "start_id": 46}, {"id": 78, "name": "Varun patni", "address": "wagholi", "latitude": "17.9027811", "longitude": "74.0814154", "mode": "4w_shared", "distance1": "15.6 km", "time_req": "38 mins", "group_id": "8S", "start_id": 57}, {"id": 79, "name": "Varun test", "address": "wagholi", "latitude": "17.9027811", "longitude": "74.0814154", "mode": "2w_shared", "distance1": "15.6 km", "time_req": "38 mins", "group_id": "8S", "start_id": 57}, {"id": 80, "name": "Varun testnew", "address": "wagholi", "latitude": "17.9027811", "longitude": "74.0814154", "mode": "2w_shared", "distance1": "15.6 km", "time_req": "38 mins", "group_id": "8S", "start_id": 57}, {"id": 81, "name": "commit test", "address": "kothrud", "latitude": "18.5073985", "longitude": "73.8076504", "mode": "bus", "distance1": "8.7 km", "time_req": "26 mins", "group_id": "5SW", "start_id": 43}, {"id": 82, "name": "Shrawani sansare", "address": "dighi", "latitude": "18.6222681", "longitude": "73.86898029999999", "mode": "2w_shared", "distance1": "13.4 km", "time_req": "29 mins", "group_id": "7N", "start_id": 68}]}